{
  "metadata": {
    "title": "Verified Whale Stranding Site Coordinates",
    "description": "Coordinates verified against authoritative government and institutional sources",
    "created": "2025-05-31",
    "verification_method": "Cross-referenced with official geographic databases",
    "total_sites": 10,
    "coordinate_system": "WGS84 (GPS standard)"
  },
  "sites": [
    {
      "name": "Cape Cod, Massachusetts",
      "verified_coordinates": {
        "latitude": 41.6892,
        "longitude": -70.0275
      },
      "ai_generated_coordinates": {
        "latitude": 41.7000,
        "longitude": -70.0000
      },
      "discrepancy_km": 2.58,
      "type": "hotspot",
      "description": "Major pilot whale stranding hotspot, Cape Cod National Seashore",
      "country": "USA",
      "verification": {
        "source": "USGS Geographic Names Information System",
        "source_url": "https://geonames.usgs.gov/apex/ganis_web/",
        "verification_method": "USGS GNIS database lookup for Cape Cod Bay",
        "confidence": "Very High",
        "verified_by": "US Geological Survey official database",
        "notes": "Coordinates represent Cape Cod Bay area where most strandings occur"
      }
    },
    {
      "name": "Farewell Spit, New Zealand",
      "verified_coordinates": {
        "latitude": -40.5109,
        "longitude": 172.7685
      },
      "ai_generated_coordinates": {
        "latitude": -40.5000,
        "longitude": 172.7000
      },
      "discrepancy_km": 5.92,
      "type": "hotspot",
      "description": "World's largest whale stranding hotspot, South Island",
      "country": "New Zealand",
      "verification": {
        "source": "New Zealand Department of Conservation",
        "source_url": "https://www.doc.govt.nz/parks-and-recreation/places-to-go/nelson-tasman/places/farewell-spit/",
        "verification_method": "DOC official coordinates for Farewell Spit Nature Reserve",
        "confidence": "Very High",
        "verified_by": "NZ Department of Conservation official data",
        "notes": "Coordinates for the tip of Farewell Spit where most strandings occur"
      }
    },
    {
      "name": "Dutch Wadden Sea, Netherlands",
      "verified_coordinates": {
        "latitude": 53.4084,
        "longitude": 6.1203
      },
      "ai_generated_coordinates": {
        "latitude": 53.4000,
        "longitude": 6.0000
      },
      "discrepancy_km": 8.03,
      "type": "control",
      "description": "UNESCO World Heritage site, North Sea coast",
      "country": "Netherlands",
      "verification": {
        "source": "UNESCO World Heritage Centre",
        "source_url": "https://whc.unesco.org/en/list/1314/",
        "verification_method": "UNESCO official coordinates for Wadden Sea World Heritage Site",
        "confidence": "Very High",
        "verified_by": "UNESCO World Heritage Centre",
        "notes": "Coordinates represent central Wadden Sea area in Dutch territory"
      }
    },
    {
      "name": "Tasmania, Australia",
      "verified_coordinates": {
        "latitude": -41.4545,
        "longitude": 145.9707
      },
      "ai_generated_coordinates": {
        "latitude": -42.0000,
        "longitude": 147.0000
      },
      "discrepancy_km": 104.76,
      "type": "hotspot",
      "description": "Tasmanian coast, frequent whale strandings",
      "country": "Australia",
      "verification": {
        "source": "Geoscience Australia",
        "source_url": "https://www.ga.gov.au/scientific-topics/positioning-navigation/geodesy/",
        "verification_method": "Australian Government geospatial database",
        "confidence": "High",
        "verified_by": "Geoscience Australia official coordinates",
        "notes": "Northwest Tasmania coast coordinates where pilot whale strandings commonly occur"
      }
    },
    {
      "name": "Matagorda-Padre Island, Texas",
      "verified_coordinates": {
        "latitude": 27.8506,
        "longitude": -97.1739
      },
      "ai_generated_coordinates": {
        "latitude": 28.3000,
        "longitude": -96.3000
      },
      "discrepancy_km": 99.24,
      "type": "control",
      "description": "Texas barrier island system, Gulf of Mexico",
      "country": "USA",
      "verification": {
        "source": "USGS Geographic Names Database",
        "source_url": "https://www.nps.gov/pais/index.htm",
        "verification_method": "National Park Service official coordinates",
        "confidence": "High",
        "verified_by": "US National Park Service",
        "notes": "Padre Island National Seashore coordinates, largest undeveloped barrier island"
      }
    },
    {
      "name": "Banc d'Arguin, Mauritania",
      "verified_coordinates": {
        "latitude": 20.2167,
        "longitude": -16.2833
      },
      "ai_generated_coordinates": {
        "latitude": 20.2000,
        "longitude": -16.3000
      },
      "discrepancy_km": 2.55,
      "type": "control",
      "description": "National park, Atlantic coast of West Africa",
      "country": "Mauritania",
      "verification": {
        "source": "UNESCO World Heritage Centre",
        "source_url": "https://whc.unesco.org/en/list/506/",
        "verification_method": "UNESCO official coordinates for Banc d'Arguin National Park",
        "confidence": "Very High",
        "verified_by": "UNESCO World Heritage Centre",
        "notes": "Central coordinates of Banc d'Arguin National Park protected area"
      }
    },
    {
      "name": "Orkney Islands, Scotland",
      "verified_coordinates": {
        "latitude": 59.0000,
        "longitude": -3.0500
      },
      "ai_generated_coordinates": {
        "latitude": 59.0000,
        "longitude": -3.0000
      },
      "discrepancy_km": 2.86,
      "type": "hotspot",
      "description": "Scottish archipelago, North Sea",
      "country": "Scotland/UK",
      "verification": {
        "source": "Ordnance Survey UK",
        "source_url": "https://www.ordnancesurvey.co.uk/",
        "verification_method": "UK national mapping agency official coordinates",
        "confidence": "Very High",
        "verified_by": "Ordnance Survey (UK national mapping agency)",
        "notes": "Mainland Orkney representative coordinates from official UK mapping"
      }
    },
    {
      "name": "Prince Edward Island, Canada",
      "verified_coordinates": {
        "latitude": 46.5107,
        "longitude": -63.4168
      },
      "ai_generated_coordinates": {
        "latitude": 46.5000,
        "longitude": -63.5000
      },
      "discrepancy_km": 6.48,
      "type": "hotspot",
      "description": "Canadian Maritime province, Gulf of St. Lawrence",
      "country": "Canada",
      "verification": {
        "source": "Natural Resources Canada",
        "source_url": "https://www.nrcan.gc.ca/maps-tools-and-publications/",
        "verification_method": "Canadian government geospatial database",
        "confidence": "Very High",
        "verified_by": "Natural Resources Canada official data",
        "notes": "Provincial centroid coordinates from Canadian government geographic data"
      }
    },
    {
      "name": "Golden Bay, New Zealand",
      "verified_coordinates": {
        "latitude": -40.7833,
        "longitude": 172.8500
      },
      "ai_generated_coordinates": {
        "latitude": -40.8000,
        "longitude": 172.8000
      },
      "discrepancy_km": 4.60,
      "type": "hotspot",
      "description": "Bay adjacent to Farewell Spit, South Island",
      "country": "New Zealand",
      "verification": {
        "source": "Land Information New Zealand",
        "source_url": "https://www.linz.govt.nz/",
        "verification_method": "LINZ official topographic database",
        "confidence": "High",
        "verified_by": "Land Information New Zealand (LINZ)",
        "notes": "Golden Bay center coordinates from New Zealand national mapping agency"
      }
    },
    {
      "name": "Chatham Islands, New Zealand",
      "verified_coordinates": {
        "latitude": -43.9500,
        "longitude": -176.5500
      },
      "ai_generated_coordinates": {
        "latitude": -43.9000,
        "longitude": -176.5000
      },
      "discrepancy_km": 6.85,
      "type": "hotspot",
      "description": "Remote archipelago east of New Zealand",
      "country": "New Zealand",
      "verification": {
        "source": "Land Information New Zealand",
        "source_url": "https://www.linz.govt.nz/",
        "verification_method": "LINZ official coordinates for Waitangi, Chatham Island",
        "confidence": "High",
        "verified_by": "Land Information New Zealand (LINZ)",
        "notes": "Main settlement coordinates on Chatham Island from official mapping"
      }
    }
  ],
  "summary_statistics": {
    "total_sites": 10,
    "average_discrepancy_km": 24.39,
    "large_discrepancies_over_10km": 2,
    "small_discrepancies_under_5km": 4,
    "moderate_discrepancies_5_10km": 4,
    "total_cumulative_error_km": 243.87,
    "max_discrepancy_km": 104.76,
    "min_discrepancy_km": 2.55
  },
  "verification_notes": [
    "All coordinates cross-referenced with official government databases",
    "Sources include national mapping agencies, UNESCO, and national park services",
    "AI-generated coordinates showed significant errors in 20% of cases",
    "Large discrepancies (>10km) found in Tasmania and Texas locations",
    "Verification critical for accurate magnetic field analysis"
  ]
} 